<?xml version="1.0" encoding="utf-8"?>
<ArrayOfCustomer xmlns:xsi="http://www.w3.org/2001/XMLSchema-instance" xmlns:xsd="http://www.w3.org/2001/XMLSchema">
  <Customer>
    <Id>32424593</Id>
    <Name>riki</Name>
    <Pone>0504378982</Pone>
    <Longitude>32.07</Longitude>
    <Lattitude>34.79</Lattitude>
  </Customer>
  <Customer>
    <Id>3246663</Id>
    <Name>avi</Name>
    <Pone>0566558982</Pone>
    <Longitude>32.06</Longitude>
    <Lattitude>34.784</Lattitude>
  </Customer>
  <Customer>
    <Id>111111</Id>
    <Name>sara</Name>
    <Pone>00443324</Pone>
    <Longitude>32.0699</Longitude>
    <Lattitude>34.77</Lattitude>
  </Customer>
  <Customer>
    <Id>8989076</Id>
    <Name>jennifer</Name>
    <Pone>0989898654</Pone>
    <Longitude>32.08</Longitude>
    <Lattitude>34.767</Lattitude>
  </Customer>
  <Customer>
    <Id>55435473</Id>
    <Name>shira</Name>
    <Pone>0546764567</Pone>
    <Longitude>32.067</Longitude>
    <Lattitude>34.8</Lattitude>
  </Customer>
  <Customer>
    <Id>12343245</Id>
    <Name>shira</Name>
    <Pone>4567890</Pone>
    <Longitude>32.07</Longitude>
    <Lattitude>34.8</Lattitude>
  </Customer>
  <Customer>
    <Id>77889980</Id>
    <Name>renana</Name>
    <Pone>0546567569</Pone>
    <Longitude>32.06</Longitude>
    <Lattitude>34.76</Lattitude>
  </Customer>
  <Customer>
    <Id>12121212</Id>
    <Name>rivka c</Name>
    <Pone>0676545678</Pone>
    <Longitude>32.06</Longitude>
    <Lattitude>34.77</Lattitude>
  </Customer>
  <Customer>
    <Id>13131313</Id>
    <Name>moti</Name>
    <Pone>054354657</Pone>
    <Longitude>32.1</Longitude>
    <Lattitude>34.8</Lattitude>
  </Customer>
  <Customer>
    <Id>324233915</Id>
    <Name>saraoshrit</Name>
    <Pone>0556678288</Pone>
    <Longitude>32.1</Longitude>
    <Lattitude>34.8</Lattitude>
  </Customer>
  <Customer>
    <Id>222222</Id>
    <Name>avishag</Name>
    <Pone>0504389875</Pone>
    <Longitude>32.059</Longitude>
    <Lattitude>34.88</Lattitude>
  </Customer>
</ArrayOfCustomer>